[{"output": [{"city": "Denpasar", "latitude": -8.6706636, "province": "Bali", "qty_packs": 582740.0, "city_color": "#6C6DA3", "longtitude": 115.21689, "company_color": "#8081b7", "customer_name": "Bali Awakening Zone", "size_category": 2, "amount_million": 9973.99, "company_percentage": 100.0}, {"city": "Tuban", "latitude": -8.7342347, "province": "Bali", "qty_packs": 113880.0, "city_color": "#76079C", "longtitude": 115.1751972, "company_color": "#b243d8", "customer_name": "Minimart, PT", "size_category": 0, "amount_million": 1911.27, "company_percentage": 100.0}, {"city": "Tangerang", "latitude": -6.189669299999999, "province": "Banten", "qty_packs": 61320.0, "city_color": "#5D9CEC", "longtitude": 106.679565, "company_color": "#99d8ff", "customer_name": "Main Kartu", "size_category": 0, "amount_million": 1226.4, "company_percentage": 1.57}, {"city": "Tangerang", "latitude": -6.2210097, "province": "Banten", "qty_packs": 3434520.0, "city_color": "#5D9CEC", "longtitude": 106.6234051, "company_color": "#5D9CEC", "customer_name": "OGRE", "size_category": 3, "amount_million": 51103.94, "company_percentage": 65.4}, {"city": "Tangerang", "latitude": -6.242973000000001, "province": "Banten", "qty_packs": 441000.0, "city_color": "#5D9CEC", "longtitude": 106.62511, "company_color": "#71b0ff", "customer_name": "TCG NoHEYA", "size_category": 2, "amount_million": 6643.64, "company_percentage": 8.5}, {"city": "Tangerang", "latitude": -6.1852561, "province": "Banten", "qty_packs": 1073830.0, "city_color": "#5D9CEC", "longtitude": 106.703769, "company_color": "#5D9CEC", "customer_name": "Unity Toys", "size_category": 3, "amount_million": 16503.04, "company_percentage": 21.12}, {"city": "Tangerang", "latitude": -6.2009371, "province": "Banten", "qty_packs": 166440.0, "city_color": "#5D9CEC", "longtitude": 106.6533526, "company_color": "#85c4ff", "customer_name": "Wilton Hobby Shop", "size_category": 1, "amount_million": 2659.85, "company_percentage": 3.4}, {"city": "Tangerang Selatan", "latitude": -6.2835218, "province": "Banten", "qty_packs": 341640.0, "city_color": "#76079C", "longtitude": 106.7112933, "company_color": "#8a1bb0", "customer_name": "Draagoons Hobby Shop", "size_category": 2, "amount_million": 5784.79, "company_percentage": 100.0}, {"city": "Jakarta Barat", "latitude": -6.2060064, "province": "Dki Jakarta", "qty_packs": 122640.0, "city_color": "#142F4B", "longtitude": 106.7961531, "company_color": "#3c5773", "customer_name": "Adrian Lim", "size_category": 1, "amount_million": 2806.39, "company_percentage": 1.54}, {"city": "Jakarta Barat", "latitude": -6.168158699999999, "province": "Dki Jakarta", "qty_packs": 162060.0, "city_color": "#142F4B", "longtitude": 106.7862719, "company_color": "#3c5773", "customer_name": "Anime Machi", "size_category": 1, "amount_million": 2414.57, "company_percentage": 1.33}, {"city": "Jakarta Barat", "latitude": -6.124266899999999, "province": "Dki Jakarta", "qty_packs": 192720.0, "city_color": "#142F4B", "longtitude": 106.7104535, "company_color": "#3c5773", "customer_name": "Azure Gaming", "size_category": 1, "amount_million": 4061.45, "company_percentage": 2.23}, {"city": "Jakarta Barat", "latitude": -6.21075, "province": "Dki Jakarta", "qty_packs": 744540.0, "city_color": "#142F4B", "longtitude": 106.8729689, "company_color": "#142F4B", "customer_name": "Blastoyz", "size_category": 3, "amount_million": 17083.46, "company_percentage": 9.4}, {"city": "Jakarta Barat", "latitude": -6.177935, "province": "Dki Jakarta", "qty_packs": 1323180.0, "city_color": "#142F4B", "longtitude": 106.792898, "company_color": "#142F4B", "customer_name": "Comics and Games", "size_category": 3, "amount_million": 22810.73, "company_percentage": 12.55}, {"city": "Jakarta Barat", "latitude": -6.1721148, "province": "Dki Jakarta", "qty_packs": 164940.0, "city_color": "#142F4B", "longtitude": 106.7205154, "company_color": "#3c5773", "customer_name": "Duel and Chili", "size_category": 1, "amount_million": 2453.85, "company_percentage": 1.35}, {"city": "Jakarta Barat", "latitude": -6.1753978, "province": "Dki Jakarta", "qty_packs": 1549260.0, "city_color": "#142F4B", "longtitude": 106.7988261, "company_color": "#142F4B", "customer_name": "Good Guy Games", "size_category": 3, "amount_million": 24083.43, "company_percentage": 13.25}, {"city": "Jakarta Barat", "latitude": -6.1765987, "province": "Dki Jakarta", "qty_packs": 3425140.0, "city_color": "#142F4B", "longtitude": 106.7880092, "company_color": "#142F4B", "customer_name": "Iki Card Shop", "size_category": 3, "amount_million": 46945.93, "company_percentage": 25.83}, {"city": "Jakarta Barat", "latitude": -6.1683801, "province": "Dki Jakarta", "qty_packs": 30660.0, "city_color": "#142F4B", "longtitude": 106.7867359, "company_color": "#506b87", "customer_name": "Play Inc", "size_category": 0, "amount_million": 613.2, "company_percentage": 0.34}, {"city": "Jakarta Barat", "latitude": -6.1716419, "province": "Dki Jakarta", "qty_packs": 113880.0, "city_color": "#142F4B", "longtitude": 106.7144573, "company_color": "#506b87", "customer_name": "Poke Choice", "size_category": 0, "amount_million": 1911.27, "company_percentage": 1.05}, {"city": "Jakarta Barat", "latitude": -6.151417899999999, "province": "Dki Jakarta", "qty_packs": 2659140.0, "city_color": "#142F4B", "longtitude": 106.78021, "company_color": "#142F4B", "customer_name": "Toys City Card Center", "size_category": 3, "amount_million": 42502.52, "company_percentage": 23.39}, {"city": "Jakarta Barat", "latitude": -6.1710074, "province": "Dki Jakarta", "qty_packs": 675980.0, "city_color": "#142F4B", "longtitude": 106.7824823, "company_color": "#142F4B", "customer_name": "Two Stompas", "size_category": 3, "amount_million": 11644.96, "company_percentage": 6.41}, {"city": "Jakarta Barat", "latitude": -6.1534228, "province": "Dki Jakarta", "qty_packs": 122640.0, "city_color": "#142F4B", "longtitude": 106.7960739, "company_color": "#3c5773", "customer_name": "Ultra Toyz", "size_category": 1, "amount_million": 2389.09, "company_percentage": 1.31}, {"city": "Jakarta Pusat", "latitude": -6.164848999999999, "province": "Dki Jakarta", "qty_packs": 113880.0, "city_color": "#5D9CEC", "longtitude": 106.8082236, "company_color": "#99d8ff", "customer_name": "Asobi Cafe", "size_category": 0, "amount_million": 1924.01, "company_percentage": 5.36}, {"city": "Jakarta Pusat", "latitude": -6.186766, "province": "Dki Jakarta", "qty_packs": 337260.0, "city_color": "#5D9CEC", "longtitude": 106.817421, "company_color": "#71b0ff", "customer_name": "Instyletoys", "size_category": 2, "amount_million": 5501.28, "company_percentage": 15.31}, {"city": "Jakarta Pusat", "latitude": -6.1405303, "province": "Dki Jakarta", "qty_packs": 1968280.0, "city_color": "#5D9CEC", "longtitude": 106.8296356, "company_color": "#5D9CEC", "customer_name": "Sarana Cipta Kreasi Cemerlang, PT", "size_category": 3, "amount_million": 28498.73, "company_percentage": 79.33}, {"city": "Jakarta Selatan", "latitude": -6.2246152, "province": "Dki Jakarta", "qty_packs": 2680020.0, "city_color": "#005700", "longtitude": 106.8296141, "company_color": "#005700", "customer_name": "Arcanum Hobbies", "size_category": 3, "amount_million": 44845.66, "company_percentage": 61.26}, {"city": "Jakarta Selatan", "latitude": -6.265569999999999, "province": "Dki Jakarta", "qty_packs": 61320.0, "city_color": "#005700", "longtitude": 106.845917, "company_color": "#3c933c", "customer_name": "Builders Society", "size_category": 0, "amount_million": 1226.4, "company_percentage": 1.68}, {"city": "Jakarta Selatan", "latitude": -6.2441792, "province": "Dki Jakarta", "qty_packs": 555530.0, "city_color": "#005700", "longtitude": 106.783529, "company_color": "#146b14", "customer_name": "Grouplay Board Game Store", "size_category": 2, "amount_million": 8862.47, "company_percentage": 12.11}, {"city": "Jakarta Selatan", "latitude": -6.2279143, "province": "Dki Jakarta", "qty_packs": 1048202.0, "city_color": "#005700", "longtitude": 106.8253402, "company_color": "#005700", "customer_name": "Indo Lotte Makmur, PT", "size_category": 3, "amount_million": 16816.14, "company_percentage": 22.97}, {"city": "Jakarta Selatan", "latitude": -6.2419331, "province": "Dki Jakarta", "qty_packs": 105120.0, "city_color": "#005700", "longtitude": 106.7960981, "company_color": "#3c933c", "customer_name": "Playtest Games", "size_category": 0, "amount_million": 1452.57, "company_percentage": 1.98}, {"city": "Jakarta Timur", "latitude": -6.1826294, "province": "Dki Jakarta", "qty_packs": 1258560.0, "city_color": "#00A37B", "longtitude": 106.947666, "company_color": "#00A37B", "customer_name": "AEON, PT", "size_category": 3, "amount_million": 18744.17, "company_percentage": 89.39}, {"city": "Jakarta Timur", "latitude": -6.135775799999999, "province": "Dki Jakarta", "qty_packs": 117000.0, "city_color": "#00A37B", "longtitude": 106.825179, "company_color": "#28cba3", "customer_name": "PSegameshop", "size_category": 1, "amount_million": 2225.45, "company_percentage": 10.61}, {"city": "Jakarta Utara", "latitude": -6.1826294, "province": "Dki Jakarta", "qty_packs": 711000.0, "city_color": "#CC4D8B", "longtitude": 106.947666, "company_color": "#CC4D8B", "customer_name": "AEON, PT", "size_category": 3, "amount_million": 12272.46, "company_percentage": 5.57}, {"city": "Jakarta Utara", "latitude": -6.127317, "province": "Dki Jakarta", "qty_packs": 385440.0, "city_color": "#CC4D8B", "longtitude": 106.826701, "company_color": "#e0619f", "customer_name": "Gundam Zaku Hobby Corner", "size_category": 2, "amount_million": 5985.47, "company_percentage": 2.72}, {"city": "Jakarta Utara", "latitude": -6.168902999999999, "province": "Dki Jakarta", "qty_packs": 338720.0, "city_color": "#CC4D8B", "longtitude": 106.9142303, "company_color": "#e0619f", "customer_name": "Happy Loak", "size_category": 2, "amount_million": 5580.92, "company_percentage": 2.53}, {"city": "Jakarta Utara", "latitude": -6.1467521, "province": "Dki Jakarta", "qty_packs": 305100.0, "city_color": "#CC4D8B", "longtitude": 106.9114153, "company_color": "#e0619f", "customer_name": "Invaders Board Game Station", "size_category": 2, "amount_million": 4745.78, "company_percentage": 2.15}, {"city": "Jakarta Utara", "latitude": -6.164187399999999, "province": "Dki Jakarta", "qty_packs": 2928660.0, "city_color": "#CC4D8B", "longtitude": 106.9115024, "company_color": "#CC4D8B", "customer_name": "Mola Cards", "size_category": 3, "amount_million": 45576.82, "company_percentage": 20.68}, {"city": "Jakarta Utara", "latitude": -6.1163858, "province": "Dki Jakarta", "qty_packs": 1677480.0, "city_color": "#CC4D8B", "longtitude": 106.7910801, "company_color": "#CC4D8B", "customer_name": "Monopolis Board Game Store", "size_category": 3, "amount_million": 26509.22, "company_percentage": 12.03}, {"city": "Jakarta Utara", "latitude": -6.147177, "province": "Dki Jakarta", "qty_packs": 235260.0, "city_color": "#CC4D8B", "longtitude": 106.900205, "company_color": "#f475b3", "customer_name": "Multi Games Shop", "size_category": 1, "amount_million": 4382.01, "company_percentage": 1.99}, {"city": "Jakarta Utara", "latitude": -6.1461581, "province": "Dki Jakarta", "qty_packs": 4591080.0, "city_color": "#CC4D8B", "longtitude": 106.8946607, "company_color": "#CC4D8B", "customer_name": "Multi Sarana Prima Nusantara, PT", "size_category": 3, "amount_million": 69544.15, "company_percentage": 31.56}, {"city": "Jakarta Utara", "latitude": -6.1456559, "province": "Dki Jakarta", "qty_packs": 223380.0, "city_color": "#CC4D8B", "longtitude": 106.8922901, "company_color": "#f475b3", "customer_name": "Nimitz Cards", "size_category": 1, "amount_million": 3590.01, "company_percentage": 1.63}, {"city": "Jakarta Utara", "latitude": -6.135775799999999, "province": "Dki Jakarta", "qty_packs": 296380.0, "city_color": "#CC4D8B", "longtitude": 106.825179, "company_color": "#f475b3", "customer_name": "PSegameshop", "size_category": 1, "amount_million": 4237.72, "company_percentage": 1.92}, {"city": "Jakarta Utara", "latitude": -6.147139399999999, "province": "Dki Jakarta", "qty_packs": 319740.0, "city_color": "#CC4D8B", "longtitude": 106.9113965, "company_color": "#f475b3", "customer_name": "Pika Center", "size_category": 1, "amount_million": 4545.64, "company_percentage": 2.06}, {"city": "Jakarta Utara", "latitude": -6.1237309, "province": "Dki Jakarta", "qty_packs": 56940.0, "city_color": "#CC4D8B", "longtitude": 106.789457, "company_color": "#ff89c7", "customer_name": "Play Eat Card Shop", "size_category": 0, "amount_million": 981.12, "company_percentage": 0.45}, {"city": "Jakarta Utara", "latitude": -6.17441, "province": "Dki Jakarta", "qty_packs": 112420.0, "city_color": "#CC4D8B", "longtitude": 106.9026192, "company_color": "#ff89c7", "customer_name": "Prul Toys and Games", "size_category": 0, "amount_million": 1718.55, "company_percentage": 0.78}, {"city": "Jakarta Utara", "latitude": -6.1456559, "province": "Dki Jakarta", "qty_packs": 113880.0, "city_color": "#CC4D8B", "longtitude": 106.8922901, "company_color": "#ff89c7", "customer_name": "Pulse Game Shop", "size_category": 0, "amount_million": 1911.27, "company_percentage": 0.87}, {"city": "Jakarta Utara", "latitude": -6.1498059, "province": "Dki Jakarta", "qty_packs": 227760.0, "city_color": "#CC4D8B", "longtitude": 106.8924404, "company_color": "#f475b3", "customer_name": "Shumitako", "size_category": 1, "amount_million": 3848.03, "company_percentage": 1.75}, {"city": "Jakarta Utara", "latitude": -6.1497348, "province": "Dki Jakarta", "qty_packs": 1651260.0, "city_color": "#CC4D8B", "longtitude": 106.90302, "company_color": "#CC4D8B", "customer_name": "Throne of Games", "size_category": 3, "amount_million": 24938.92, "company_percentage": 11.32}, {"city": "Bandung", "latitude": -6.886992299999999, "province": "Jawa Barat", "qty_packs": 110960.0, "city_color": "#44B5BC", "longtitude": 107.5814418, "company_color": "#80f1f8", "customer_name": "Bakso Kerikil Reseup", "size_category": 0, "amount_million": 1553.44, "company_percentage": 3.63}, {"city": "Bandung", "latitude": -6.9174639, "province": "Jawa Barat", "qty_packs": 254040.0, "city_color": "#44B5BC", "longtitude": 107.6191228, "company_color": "#6cdde4", "customer_name": "CnC Cards & Collectibles", "size_category": 1, "amount_million": 3865.02, "company_percentage": 9.03}, {"city": "Bandung", "latitude": -6.915057999999999, "province": "Jawa Barat", "qty_packs": 267180.0, "city_color": "#44B5BC", "longtitude": 107.596061, "company_color": "#58c9d0", "customer_name": "Gameplay", "size_category": 2, "amount_million": 4913.56, "company_percentage": 11.48}, {"city": "Bandung", "latitude": -6.9174639, "province": "Jawa Barat", "qty_packs": 13140.0, "city_color": "#44B5BC", "longtitude": 107.6191228, "company_color": "#80f1f8", "customer_name": "Hobby Line Store", "size_category": 0, "amount_million": 716.73, "company_percentage": 1.67}, {"city": "Bandung", "latitude": -6.877095, "province": "Jawa Barat", "qty_packs": 1139890.0, "city_color": "#44B5BC", "longtitude": 107.58906, "company_color": "#44B5BC", "customer_name": "Mishra Workshop", "size_category": 3, "amount_million": 18678.12, "company_percentage": 43.64}, {"city": "Bandung", "latitude": -6.878502, "province": "Jawa Barat", "qty_packs": 132130.0, "city_color": "#44B5BC", "longtitude": 108.719704, "company_color": "#6cdde4", "customer_name": "Monomyth Cafe", "size_category": 1, "amount_million": 2320.07, "company_percentage": 5.42}, {"city": "Bandung", "latitude": -6.135078699999999, "province": "Jawa Barat", "qty_packs": 113880.0, "city_color": "#44B5BC", "longtitude": 106.9246088, "company_color": "#80f1f8", "customer_name": "Play Inside", "size_category": 0, "amount_million": 1911.27, "company_percentage": 4.47}, {"city": "Bandung", "latitude": -6.926465899999999, "province": "Jawa Barat", "qty_packs": 446760.0, "city_color": "#44B5BC", "longtitude": 107.597544, "company_color": "#58c9d0", "customer_name": "SL Card Kingdom", "size_category": 2, "amount_million": 7167.27, "company_percentage": 16.74}, {"city": "Bandung", "latitude": -6.957749, "province": "Jawa Barat", "qty_packs": 109500.0, "city_color": "#44B5BC", "longtitude": 107.5787181, "company_color": "#80f1f8", "customer_name": "The Maple Boardgame", "size_category": 0, "amount_million": 1678.73, "company_percentage": 3.92}, {"city": "Bekasi", "latitude": -6.1687273, "province": "Jawa Barat", "qty_packs": 105120.0, "city_color": "#6C6DA3", "longtitude": 106.9730344, "company_color": "#a8a9df", "customer_name": "Chrono Portal", "size_category": 0, "amount_million": 1433.45, "company_percentage": 25.84}, {"city": "Bekasi", "latitude": -6.337682999999999, "province": "Jawa Barat", "qty_packs": 274480.0, "city_color": "#6C6DA3", "longtitude": 107.151753, "company_color": "#9495cb", "customer_name": "Xiaoken Hobby Shop", "size_category": 1, "amount_million": 4114.01, "company_percentage": 74.16}, {"city": "Bekasi Selatan", "latitude": -6.255136600000001, "province": "Jawa Barat", "qty_packs": 1170190.0, "city_color": "#0669B4", "longtitude": 106.968945, "company_color": "#0669B4", "customer_name": "Gerberas Corner", "size_category": 3, "amount_million": 15942.67, "company_percentage": 100.0}, {"city": "Bogor", "latitude": -6.5630957, "province": "Jawa Barat", "qty_packs": 120450.0, "city_color": "#FF8000", "longtitude": 106.7638259, "company_color": "#ffa828", "customer_name": "Eat and Play", "size_category": 1, "amount_million": 2291.93, "company_percentage": 100.0}, {"city": "Depok", "latitude": -6.3736732, "province": "Jawa Barat", "qty_packs": 305100.0, "city_color": "#5D9CEC", "longtitude": 106.8323901, "company_color": "#71b0ff", "customer_name": "Castle8", "size_category": 2, "amount_million": 4745.78, "company_percentage": 100.0}, {"city": "Jakarta Barat", "latitude": -6.1442687, "province": "Jawa Barat", "qty_packs": 367920.0, "city_color": "#00A37B", "longtitude": 106.8230886, "company_color": "#14b78f", "customer_name": "Eternity Games", "size_category": 2, "amount_million": 7167.27, "company_percentage": 100.0}, {"city": "Semarang", "latitude": -6.9798474, "province": "Jawa Tengah", "qty_packs": 249660.0, "city_color": "#FFBF41", "longtitude": 110.4274359, "company_color": "#ffd355", "customer_name": "Fairians Card Games", "size_category": 2, "amount_million": 5023.46, "company_percentage": 100.0}, {"city": "Sleman", "latitude": -7.8037693, "province": "Jawa Tengah", "qty_packs": 61320.0, "city_color": "#FF8000", "longtitude": 110.3271579, "company_color": "#ffbc3c", "customer_name": "Winter Games", "size_category": 0, "amount_million": 1226.4, "company_percentage": 100.0}, {"city": "Solo", "latitude": -7.551693200000001, "province": "Jawa Tengah", "qty_packs": 284700.0, "city_color": "#ED5565", "longtitude": 110.8156599, "company_color": "#ff6979", "customer_name": "Otakon Hobby Solo", "size_category": 2, "amount_million": 5888.31, "company_percentage": 100.0}, {"city": "Surabaya", "latitude": -7.293949499999999, "province": "Jawa Timur", "qty_packs": 122640.0, "city_color": "#A1B746", "longtitude": 112.6768374, "company_color": "#c9df6e", "customer_name": "Boardgame Time", "size_category": 1, "amount_million": 2401.83, "company_percentage": 1.85}, {"city": "Surabaya", "latitude": -7.324843500000001, "province": "Jawa Timur", "qty_packs": 211700.0, "city_color": "#A1B746", "longtitude": 112.7893487, "company_color": "#c9df6e", "customer_name": "Happy Hobbies Headquarters", "size_category": 1, "amount_million": 4530.25, "company_percentage": 3.48}, {"city": "Surabaya", "latitude": -7.282646199999999, "province": "Jawa Timur", "qty_packs": 324120.0, "city_color": "#A1B746", "longtitude": 112.6862411, "company_color": "#b5cb5a", "customer_name": "Headquarters", "size_category": 2, "amount_million": 4790.92, "company_percentage": 3.69}, {"city": "Surabaya", "latitude": -7.3362153, "province": "Jawa Timur", "qty_packs": 176880.0, "city_color": "#A1B746", "longtitude": 112.7850226, "company_color": "#c9df6e", "customer_name": "Joika Hobby Shop", "size_category": 1, "amount_million": 3138.55, "company_percentage": 2.41}, {"city": "Surabaya", "latitude": -7.2922051, "province": "Jawa Timur", "qty_packs": 394200.0, "city_color": "#A1B746", "longtitude": 112.7031099, "company_color": "#b5cb5a", "customer_name": "Next Game", "size_category": 2, "amount_million": 6450.55, "company_percentage": 4.96}, {"city": "Surabaya", "latitude": -7.282287299999999, "province": "Jawa Timur", "qty_packs": 306600.0, "city_color": "#A1B746", "longtitude": 112.6867209, "company_color": "#b5cb5a", "customer_name": "Sini Duduk Board Game Cafe", "size_category": 2, "amount_million": 6004.58, "company_percentage": 4.62}, {"city": "Surabaya", "latitude": -7.299555099999999, "province": "Jawa Timur", "qty_packs": 1208880.0, "city_color": "#A1B746", "longtitude": 112.7072405, "company_color": "#A1B746", "customer_name": "Steven Wonders", "size_category": 3, "amount_million": 18004.19, "company_percentage": 13.85}, {"city": "Surabaya", "latitude": -7.2761238, "province": "Jawa Timur", "qty_packs": 608820.0, "city_color": "#A1B746", "longtitude": 112.7559058, "company_color": "#b5cb5a", "customer_name": "The Outpost", "size_category": 2, "amount_million": 9581.85, "company_percentage": 7.37}, {"city": "Surabaya", "latitude": -7.283392, "province": "Jawa Timur", "qty_packs": 183960.0, "city_color": "#A1B746", "longtitude": 112.776017, "company_color": "#c9df6e", "customer_name": "Time Walk", "size_category": 1, "amount_million": 3583.64, "company_percentage": 2.76}, {"city": "Surabaya", "latitude": -7.301183, "province": "Jawa Timur", "qty_packs": 2725080.0, "city_color": "#A1B746", "longtitude": 112.7726404, "company_color": "#A1B746", "customer_name": "Utopia Cards", "size_category": 3, "amount_million": 42588.0, "company_percentage": 32.76}, {"city": "Surabaya", "latitude": -7.269395499999999, "province": "Jawa Timur", "qty_packs": 1971000.0, "city_color": "#A1B746", "longtitude": 112.8068022, "company_color": "#A1B746", "customer_name": "VG Clinic", "size_category": 3, "amount_million": 28936.67, "company_percentage": 22.26}, {"city": "Pontianak", "latitude": -0.0283296, "province": "Kalimantan Barat", "qty_packs": 404640.0, "city_color": "#00A37B", "longtitude": 109.3441174, "company_color": "#14b78f", "customer_name": "TCG Shop", "size_category": 2, "amount_million": 6961.09, "company_percentage": 63.35}, {"city": "Pontianak", "latitude": -0.02886, "province": "Kalimantan Barat", "qty_packs": 242360.0, "city_color": "#00A37B", "longtitude": 109.339017, "company_color": "#28cba3", "customer_name": "The Meeple", "size_category": 1, "amount_million": 4026.95, "company_percentage": 36.65}, {"city": "Banjarmasin", "latitude": -3.2835391, "province": "Kalimantan Selatan", "qty_packs": 290700.0, "city_color": "#881E00", "longtitude": 114.5810589, "company_color": "#9c3214", "customer_name": "Blesshop", "size_category": 2, "amount_million": 5157.12, "company_percentage": 100.0}, {"city": "Ambon", "latitude": -3.697826799999999, "province": "Maluku", "qty_packs": 75920.0, "city_color": "#6C6DA3", "longtitude": 128.18431, "company_color": "#a8a9df", "customer_name": "Galaxy Pokeshop", "size_category": 0, "amount_million": 1430.8, "company_percentage": 100.0}, {"city": "Makassar", "latitude": -5.1726882, "province": "Sulawesi Selatan", "qty_packs": 113880.0, "city_color": "#FF8000", "longtitude": 119.4201316, "company_color": "#ffbc3c", "customer_name": "Ende Jaya", "size_category": 0, "amount_million": 1962.24, "company_percentage": 100.0}, {"city": "Padang", "latitude": -0.9470831999999999, "province": "Sumatera Barat", "qty_packs": 450410.0, "city_color": "#44B5BC", "longtitude": 100.417181, "company_color": "#58c9d0", "customer_name": "Boardgame Lounge Smart Cafe", "size_category": 2, "amount_million": 8222.99, "company_percentage": 100.0}, {"city": "Palembang", "latitude": -2.9860374, "province": "Sumatera Selatan", "qty_packs": 113880.0, "city_color": "#142F4B", "longtitude": 104.7251608, "company_color": "#506b87", "customer_name": "Game Fortress", "size_category": 0, "amount_million": 1911.27, "company_percentage": 46.4}, {"city": "Palembang", "latitude": -2.9846754, "province": "Sumatera Selatan", "qty_packs": 118260.0, "city_color": "#142F4B", "longtitude": 104.7582955, "company_color": "#3c5773", "customer_name": "Rickiest Toys and Hobby", "size_category": 1, "amount_million": 2207.52, "company_percentage": 53.6}, {"city": "Medan", "latitude": 3.5759164, "province": "Sumatera Utara", "qty_packs": 499320.0, "city_color": "#0669B4", "longtitude": 98.6166227, "company_color": "#1a7dc8", "customer_name": "Velocity", "size_category": 2, "amount_million": 7884.0, "company_percentage": 100.0}, {"city": "City Na", "latitude": null, "province": "Unknown", "qty_packs": 61320.0, "city_color": "#142F4B", "longtitude": null, "company_color": "#506b87", "customer_name": "Axton Salim", "size_category": 0, "amount_million": 1592.73, "company_percentage": 83.48}, {"city": "City Na", "latitude": null, "province": "Unknown", "qty_packs": 9000.0, "city_color": "#142F4B", "longtitude": null, "company_color": "#506b87", "customer_name": "ICC CARDS & COLLECTIBLES", "size_category": 0, "amount_million": 147.93, "company_percentage": 7.75}, {"city": "City Na", "latitude": null, "province": "Unknown", "qty_packs": 4311.0, "city_color": "#142F4B", "longtitude": null, "company_color": "#506b87", "customer_name": "Mark Vincent", "size_category": 0, "amount_million": 102.44, "company_percentage": 5.37}, {"city": "City Na", "latitude": null, "province": "Unknown", "qty_packs": 4320.0, "city_color": "#142F4B", "longtitude": null, "company_color": "#506b87", "customer_name": "Nakama Cafe Bandung", "size_category": 0, "amount_million": 64.8, "company_percentage": 3.4}], "filter_links": "None", "graph_description": "map chart all companies at each city level"}]